City_ID,City,Country,Lat,Lng,Max Temp,Humidity,Cloudiness,Wind Speed,Current Description
0,Ponta Do Sol,PT,32.6667,-17.1,66.7,87,100,7.92,overcast clouds
1,Bluff,NZ,-46.6,168.3333,74.8,53,30,12.97,scattered clouds
2,Busselton,AU,-33.65,115.3333,88.59,35,29,9.33,scattered clouds
3,Tiksi,RU,71.6872,128.8694,-12.3,100,100,6.15,overcast clouds
4,Lorengau,PG,-2.0226,147.2712,83.79,79,81,9.06,light rain
5,Tautira,PF,-17.7333,-149.15,82.42,78,27,16.75,light rain
6,Cape Town,ZA,-33.9258,18.4232,68.41,78,0,3.0,clear sky
7,Chokurdakh,RU,70.6333,147.9167,-16.98,97,100,10.56,overcast clouds
8,Fairbanks,US,64.8378,-147.7164,14.22,85,90,0.0,snow
9,Mar Del Plata,AR,-38.0023,-57.5575,63.09,88,0,5.99,clear sky
10,Cidreira,BR,-30.1811,-50.2056,71.6,83,0,17.16,clear sky
11,Albany,US,42.6001,-73.9662,40.73,95,100,1.45,snow
12,Avarua,CK,-21.2078,-159.775,82.45,74,20,11.5,moderate rain
13,Laguna,US,38.421,-121.4238,48.7,94,20,5.01,few clouds
14,Rikitea,PF,-23.1203,-134.9692,76.46,79,100,20.11,moderate rain
15,Ossora,RU,59.2353,163.0719,-6.63,89,5,5.77,clear sky
16,Victoria,HK,22.2855,114.1577,62.33,76,100,1.01,overcast clouds
17,Barrow,US,71.2906,-156.7887,-11.18,77,90,6.91,overcast clouds
18,Belyy Yar,RU,53.6039,91.3903,-13.14,63,86,0.0,smoke
19,Yellowknife,CA,62.456,-114.3525,-5.28,77,90,13.8,light snow
20,Besikduzu,TR,41.052,39.2284,40.89,66,6,7.23,clear sky
21,Lasa,IT,46.6166,10.7002,38.28,82,100,1.77,overcast clouds
22,Honningsvag,NO,70.9821,25.9704,30.87,61,100,18.45,light snow
23,Bathsheba,BB,13.2167,-59.5167,77.61,69,20,14.97,few clouds
24,San Andres,CO,12.5847,-81.7006,82.42,78,40,9.22,scattered clouds
25,Atuona,PF,-9.8,-139.0333,78.3,74,1,12.93,clear sky
26,Saldanha,ZA,-33.0117,17.9442,62.65,90,12,9.37,few clouds
27,Carnarvon,AU,-24.8667,113.6333,82.47,61,95,9.22,overcast clouds
28,Ushuaia,AR,-54.8,-68.3,53.26,50,75,2.3,broken clouds
29,Oran,DZ,35.6911,-0.6417,56.91,82,40,8.05,scattered clouds
30,Port Lincoln,AU,-34.7333,135.8667,65.43,56,35,17.76,scattered clouds
31,Severo-Kurilsk,RU,50.6789,156.125,31.06,97,100,17.52,snow
32,Vaini,TO,-21.2,-175.2,84.36,79,75,11.5,broken clouds
33,Christchurch,NZ,-43.5333,172.6333,78.48,50,0,8.01,clear sky
34,Longyearbyen,SJ,78.2186,15.6401,22.84,68,20,26.46,few clouds
35,Arraial Do Cabo,BR,-22.9661,-42.0278,72.32,73,0,8.55,clear sky
36,Port Macquarie,AU,-31.4333,152.9167,83.89,66,19,8.99,few clouds
37,Mataura,NZ,-46.1927,168.8643,74.48,34,14,11.12,few clouds
38,New Norfolk,AU,-42.7826,147.0587,65.75,40,36,1.99,scattered clouds
39,Jamestown,US,42.097,-79.2353,45.09,98,90,5.01,mist
40,Nikolskoye,RU,59.7035,30.7861,3.09,99,100,4.5,overcast clouds
41,Kapaa,US,22.0752,-159.319,78.78,70,20,1.01,few clouds
42,Dinhata,IN,26.1333,89.4667,58.71,55,5,6.62,clear sky
43,Yar-Sale,RU,66.8333,70.8333,-8.59,95,80,11.5,broken clouds
44,Hithadhoo,MV,-0.6,73.0833,82.36,70,61,13.09,broken clouds
45,Ponot,PH,8.452,123.0222,82.27,79,100,15.21,overcast clouds
46,Awbari,LY,26.5921,12.7805,51.49,42,45,8.81,scattered clouds
47,Lebu,CL,-37.6167,-73.65,57.76,87,0,19.01,clear sky
48,Butaritari,KI,3.0707,172.7902,82.44,74,79,12.21,broken clouds
49,Puerto Ayora,EC,-0.7393,-90.3518,70.56,93,97,5.01,overcast clouds
50,Beloha,MG,-25.1667,45.05,67.82,82,42,8.46,scattered clouds
51,Mikhaylovskoye,RU,51.8239,79.7172,13.64,97,100,3.62,overcast clouds
52,Thompson,CA,55.7435,-97.8558,-23.64,76,1,4.61,clear sky
53,Paamiut,GL,61.994,-49.6678,29.57,69,28,9.08,scattered clouds
54,Cockburn Town,TC,21.4612,-71.1419,79.03,74,2,14.0,clear sky
55,Pasni,PK,25.2631,63.471,72.81,79,100,5.88,overcast clouds
56,Kijang,KR,35.2442,129.2139,24.53,36,0,13.29,clear sky
57,Upernavik,GL,72.7868,-56.1549,4.32,100,100,9.1,overcast clouds
58,Klyuchi,RU,52.2667,79.1667,22.41,97,100,3.69,overcast clouds
59,Karacakoy,TR,41.4029,28.3834,51.84,81,76,14.99,broken clouds
60,Tuktoyaktuk,CA,69.4541,-133.0374,-20.2,76,1,9.22,clear sky
61,Haicheng,CN,40.8516,122.7475,9.3,34,0,4.65,clear sky
62,Cayenne,GF,4.9333,-52.3333,80.1,87,75,3.44,broken clouds
63,Tarakan,ID,3.3,117.6333,81.9,83,75,3.44,broken clouds
64,Biskamzha,RU,53.4497,89.5272,1.42,91,89,0.74,overcast clouds
65,Arcata,US,40.8665,-124.0828,41.61,93,90,3.44,overcast clouds
66,Pacific Grove,US,36.6177,-121.9166,48.51,89,90,1.01,moderate rain
67,Bairiki,KI,1.3292,172.9752,87.8,70,40,10.36,scattered clouds
68,Jurado,CO,7.1053,-77.7641,77.05,91,80,0.18,light rain
69,Valparaiso,CL,-33.0393,-71.6273,65.48,78,90,5.75,overcast clouds
70,Mongar,BT,27.2747,91.2396,41.41,46,0,4.79,clear sky
71,Kaeo,NZ,-35.1,173.7833,80.33,66,48,7.76,scattered clouds
72,Moindou,NC,-21.6924,165.677,89.55,64,97,6.96,overcast clouds
73,Ardakan,IR,32.31,54.0175,39.58,43,0,4.88,clear sky
74,Stalybridge,GB,53.4841,-2.0591,38.12,90,100,3.0,moderate rain
75,Mut,TR,36.6439,33.4389,42.26,84,59,1.88,broken clouds
76,Chilliwack,CA,49.1747,-121.9443,23.94,83,100,5.01,snow
77,Fuxin,CN,42.0156,121.6589,8.67,52,35,8.81,scattered clouds
78,Ancud,CL,-41.8697,-73.8203,58.42,92,0,2.37,clear sky
79,Bethel,US,41.3712,-73.414,44.04,92,40,0.0,mist
80,Panara,IN,22.0667,78.55,56.93,57,5,3.09,clear sky
81,Port Alfred,ZA,-33.5906,26.891,69.91,89,100,18.07,light rain
82,Bredasdorp,ZA,-34.5322,20.0403,66.27,94,100,11.5,overcast clouds
83,Jamame,SO,0.0722,42.7506,76.62,90,99,6.62,light rain
84,Presidente Medici,BR,-11.1753,-61.9014,75.6,94,100,1.79,overcast clouds
85,Peniche,PT,39.3558,-9.3811,58.48,93,100,12.3,overcast clouds
86,Grand Gaube,MU,-20.0064,57.6608,79.38,87,100,4.99,overcast clouds
87,Sitka,US,57.0531,-135.33,21.09,53,40,5.75,scattered clouds
88,Dubova,RO,44.6167,22.2667,47.44,98,100,0.22,light rain
89,Hilo,US,19.7297,-155.09,75.27,53,43,9.44,scattered clouds
90,Quatre Cocos,MU,-20.2078,57.7625,79.09,78,100,3.47,overcast clouds
91,Saint-Philippe,RE,-21.3585,55.7679,78.39,85,51,1.95,light rain
92,Vestmanna,FO,62.1564,-7.1664,36.52,70,90,16.11,overcast clouds
93,Qaanaaq,GL,77.484,-69.3632,11.21,96,100,9.62,light snow
94,Porto Torres,IT,40.835,8.3972,59.18,85,100,12.55,overcast clouds
95,Hermanus,ZA,-34.4187,19.2345,66.9,88,100,13.47,overcast clouds
96,Oprisor,RO,44.2833,23.0833,46.72,91,100,3.29,light rain
97,Marfino,RU,55.7028,37.3822,14.34,85,20,13.42,few clouds
98,Saint-Pierre,RE,-21.3393,55.4781,78.48,76,20,4.61,few clouds
99,Zhezkazgan,KZ,47.8043,67.7144,13.98,92,90,13.42,light snow
100,College,US,64.8569,-147.8028,14.2,85,90,0.0,snow
101,Khatanga,RU,71.9667,102.5,-25.76,95,40,3.74,scattered clouds
102,Great Yarmouth,GB,52.6083,1.7305,39.45,81,92,18.63,overcast clouds
103,East London,ZA,-33.0153,27.9116,69.46,93,87,11.36,overcast clouds
104,Nouadhibou,MR,20.931,-17.0347,64.38,68,0,11.5,clear sky
105,Husavik,IS,66.0449,-17.3389,26.51,80,100,6.78,overcast clouds
106,Porto Belo,BR,-27.1578,-48.5531,75.18,76,63,10.29,broken clouds
107,Racale,IT,39.9631,18.0938,57.83,75,100,17.18,overcast clouds
108,Kopavogur,IS,64.1123,-21.913,34.02,76,75,5.75,snow
109,Geraldton,AU,-28.7667,114.6,106.21,9,2,23.02,clear sky
110,Kizema,RU,61.113,44.8302,11.05,97,100,2.73,light snow
111,Izberbash,RU,42.5696,47.8645,24.85,63,100,11.88,overcast clouds
112,Tottori,JP,35.5,134.2333,32.07,86,75,17.27,light shower snow
113,Bambous Virieux,MU,-20.3428,57.7575,79.21,88,40,3.44,scattered clouds
114,Solnechnyy,RU,50.7214,136.6319,-12.71,80,73,2.46,broken clouds
115,Ilulissat,GL,69.2167,-51.1,28.42,40,8,14.97,clear sky
116,Dingle,PH,10.9995,122.6711,79.52,85,81,12.73,broken clouds
117,Caravelas,BR,-17.7125,-39.2481,71.71,92,100,4.59,overcast clouds
118,Pathein,MM,16.7833,94.7333,70.23,73,0,5.35,clear sky
119,Kahului,US,20.8947,-156.47,78.82,67,1,18.41,clear sky
120,Hobart,AU,-42.8794,147.3294,66.11,44,75,3.0,broken clouds
121,Kruisfontein,ZA,-34.0033,24.7314,62.89,89,86,2.89,overcast clouds
122,Asau,RO,46.4333,26.4,28.76,100,100,3.67,light snow
123,Port Elizabeth,ZA,-33.918,25.5701,65.1,100,0,3.44,clear sky
124,Holme,DK,56.1138,10.1725,22.64,92,19,7.72,few clouds
125,Dikson,RU,73.5069,80.5464,-10.41,97,20,8.01,few clouds
126,Mugur-Aksy,RU,50.35,90.5,-6.39,63,12,6.69,few clouds
127,Hambantota,LK,6.1241,81.1185,73.51,75,4,11.61,clear sky
128,Torbay,CA,47.6666,-52.7314,28.58,85,75,23.02,broken clouds
129,Constitucion,CL,-35.3333,-72.4167,60.87,74,6,8.63,clear sky
130,Pochutla,MX,15.7432,-96.4661,77.85,88,76,1.52,broken clouds
131,Nanortalik,GL,60.1432,-45.2371,33.21,73,79,14.52,broken clouds
132,Bilma,NE,18.6853,12.9164,63.46,20,100,5.64,overcast clouds
133,Erzin,TR,36.9559,36.2,46.92,64,5,5.5,clear sky
134,Kodiak,US,57.79,-152.4072,36.91,87,1,0.0,clear sky
135,Rangpur,BD,25.75,89.25,60.26,59,0,5.61,clear sky
136,Tarija,BO,-21.5355,-64.7296,62.71,83,100,1.97,light rain
137,Namatanai,PG,-3.6667,152.4333,84.67,70,99,6.73,moderate rain
138,Kaitangata,NZ,-46.2817,169.8464,65.93,71,3,4.83,clear sky
139,Punta Arenas,CL,-53.15,-70.9167,55.51,47,0,10.36,clear sky
140,Sambava,MG,-14.2667,50.1667,74.21,92,100,4.52,overcast clouds
141,La Ronge,CA,55.1001,-105.2842,-21.75,69,1,2.3,clear sky
142,Amravati,IN,20.9333,77.75,62.06,56,0,6.62,clear sky
143,San Cristobal,VE,7.7669,-72.225,69.98,85,37,1.43,scattered clouds
144,Codrington,AU,-38.2667,141.9667,61.74,54,99,16.64,overcast clouds
145,San Carlos De Bariloche,AR,-41.1456,-71.3082,64.15,34,20,0.0,few clouds
146,Maniitsoq,GL,65.4167,-52.9,30.33,57,0,4.47,clear sky
147,Sisimiut,GL,66.9395,-53.6735,21.94,62,0,5.28,clear sky
148,Amalapuram,IN,16.5833,82.0167,73.78,81,0,2.15,clear sky
149,Faanui,PF,-16.4833,-151.75,81.36,69,20,12.77,few clouds
150,Harper,LR,4.375,-7.7169,79.11,82,19,6.69,few clouds
151,Upata,VE,8.0086,-62.3989,75.2,97,25,3.76,scattered clouds
152,Tuatapere,NZ,-46.1333,167.6833,74.82,49,16,12.03,few clouds
153,Lompoc,US,34.6391,-120.4579,53.28,83,90,8.05,moderate rain
154,Tasiilaq,GL,65.6145,-37.6368,24.96,55,0,6.98,clear sky
155,Smolenka,RU,52.1352,113.4974,1.47,60,15,8.95,few clouds
156,Dobryanka,RU,58.4619,56.4165,15.66,92,100,16.6,snow
157,Sakakah,SA,29.9697,40.2064,42.37,75,0,5.61,clear sky
158,Zomin,UZ,39.9606,68.3958,33.6,94,100,4.76,overcast clouds
159,Karratha,AU,-20.7377,116.8463,99.18,29,34,15.93,scattered clouds
160,Akdepe,TM,42.0551,59.3788,10.49,86,9,5.06,clear sky
161,Ribeira Grande,PT,38.5167,-28.7,63.86,91,100,28.32,overcast clouds
162,Quelimane,MZ,-17.8786,36.8883,80.55,94,75,4.61,broken clouds
163,Scarborough,GB,54.2797,-0.4044,39.52,77,46,8.99,scattered clouds
164,Lavrentiya,RU,65.5833,-171.0,12.38,90,100,1.9,overcast clouds
165,Cap Malheureux,MU,-19.9842,57.6142,79.47,87,100,4.7,overcast clouds
166,Benghazi,LY,32.1167,20.0667,57.63,67,0,11.77,clear sky
167,Moose Factory,CA,51.2585,-80.6094,15.8,79,90,10.36,light snow
168,Pevek,RU,69.7008,170.3133,-15.63,94,100,5.53,overcast clouds
169,Bengkulu,ID,-3.8004,102.2655,81.0,75,83,3.44,broken clouds
170,Tilichiki,RU,60.4667,166.1,-12.01,96,18,9.93,few clouds
171,Hamilton,US,39.1834,-84.5333,55.24,90,90,1.01,overcast clouds
172,Dire Dawa,ET,9.5931,41.8661,63.93,56,0,1.86,clear sky
173,Mahebourg,MU,-20.4081,57.7,79.25,88,40,3.44,scattered clouds
174,Ranau,MY,5.9538,116.6641,81.25,66,92,2.39,overcast clouds
175,Rapid Valley,US,44.0625,-103.1463,35.2,79,1,5.75,clear sky
176,Yuksekova,TR,37.5736,44.2872,5.63,68,1,4.29,clear sky
177,Miracema Do Tocantins,BR,-9.5618,-48.3967,72.61,96,100,3.11,light rain
178,Cortes,ES,41.9395,-1.4396,47.61,81,100,2.71,overcast clouds
179,Ostrovnoy,RU,68.0531,39.5131,17.83,90,100,16.78,light snow
180,Sligo,IE,54.2697,-8.4694,47.68,90,100,11.83,overcast clouds
181,Kortkeros,RU,61.8106,51.5806,8.6,89,100,12.82,overcast clouds
182,Providencia,MX,28.7167,-111.5833,71.85,54,60,4.18,broken clouds
183,Norman Wells,CA,65.282,-126.8329,-30.96,61,20,4.61,few clouds
184,Vangaindrano,MG,-23.35,47.6,74.01,92,89,7.56,overcast clouds
185,Oum Hadjer,TD,13.2954,19.6966,69.46,23,62,8.16,broken clouds
186,Angoche,MZ,-16.2325,39.9086,78.67,87,100,5.77,overcast clouds
187,Kaspiysk,RU,42.8816,47.6392,24.98,86,88,4.47,overcast clouds
188,Lahat,ID,-3.8,103.5333,78.75,86,67,2.19,broken clouds
189,Poum,NC,-20.2333,164.0167,81.73,76,83,11.03,broken clouds
190,Adrar,MR,20.5022,-10.0711,63.66,26,0,8.34,clear sky
191,Luderitz,NA,-26.6481,15.1594,60.48,86,0,6.06,clear sky
192,Esperance,AU,-33.8667,121.9,72.59,56,41,15.03,scattered clouds
193,Carbonia,IT,39.1672,8.5222,52.99,92,100,2.46,overcast clouds
194,Ilo,PE,-17.6394,-71.3375,69.48,89,77,3.15,broken clouds
195,Shubarshi,KZ,48.5872,57.1869,7.02,87,16,8.7,few clouds
196,San Juan,AR,-31.5375,-68.5364,85.68,23,96,7.43,overcast clouds
197,Helena,US,46.5927,-112.0361,19.33,74,40,3.0,scattered clouds
198,Mayumba,GA,-3.432,10.6554,76.19,92,81,3.31,broken clouds
199,Westport,US,41.1415,-73.3579,48.34,95,40,5.75,mist
200,Neuquen,AR,-38.9516,-68.0591,71.49,53,0,3.44,clear sky
201,Provideniya,RU,64.3833,-173.3,16.05,93,100,1.68,overcast clouds
202,Lamu,KE,-2.2717,40.902,79.57,82,100,7.0,light rain
203,Nyimba,ZM,-14.5566,30.8149,67.21,93,100,3.27,overcast clouds
204,Pitimbu,BR,-7.4706,-34.8086,79.39,82,100,8.14,overcast clouds
205,Buraydah,SA,26.326,43.975,50.45,58,67,11.01,broken clouds
206,Cabo San Lucas,MX,22.8909,-109.9124,75.51,69,1,4.61,clear sky
207,Yazykovo,RU,55.2199,56.1353,15.96,91,100,28.97,light snow
208,Dwarka,IN,22.2394,68.9678,70.92,81,56,6.78,broken clouds
209,Banda Aceh,ID,5.5577,95.3222,80.11,75,72,10.94,broken clouds
210,Guanambi,BR,-14.2233,-42.7814,67.55,93,96,4.14,overcast clouds
211,Anadyr,RU,64.75,177.4833,-1.7,84,75,11.18,broken clouds
212,Yerbogachen,RU,61.2767,108.0108,-22.72,94,100,0.89,overcast clouds
213,Guerrero Negro,MX,27.9769,-114.0611,60.48,70,90,11.3,overcast clouds
214,Mehamn,NO,71.0357,27.8492,27.23,90,100,16.2,light snow
215,Puerto Carreno,CO,6.189,-67.4859,83.52,57,10,10.98,clear sky
216,Dromolaxia,CY,34.8761,33.586,58.98,82,20,3.44,few clouds
217,Maarianhamina,AX,60.0973,19.9348,22.86,80,90,6.91,light snow
218,Kamenka,RU,51.3223,42.7678,20.75,96,100,3.2,overcast clouds
219,Broken Hill,AU,-31.95,141.4333,80.29,24,1,20.38,clear sky
220,Linjiang,CN,41.8069,126.9078,-3.78,72,29,2.37,scattered clouds
221,Pangnirtung,CA,66.1451,-65.7125,12.11,69,8,6.98,clear sky
222,Tazovskiy,RU,67.4667,78.7,-8.25,94,91,12.41,overcast clouds
223,Coihaique,CL,-45.5752,-72.0662,60.75,41,99,5.75,overcast clouds
224,Anloga,GH,5.7947,0.8973,81.32,79,10,9.55,clear sky
225,Deogarh,IN,21.5333,84.7333,62.28,78,0,1.03,clear sky
226,Saint George,US,37.1041,-113.5841,51.94,64,90,1.99,overcast clouds
227,Blama,SL,7.8736,-11.3433,72.82,95,35,0.67,scattered clouds
228,Chuy,UY,-33.6971,-53.4616,70.72,83,95,7.74,overcast clouds
229,Souillac,MU,-20.5167,57.5167,79.36,88,40,3.44,scattered clouds
230,Hasaki,JP,35.7333,140.8333,43.29,34,79,18.72,broken clouds
231,Hervey Bay,AU,-25.2986,152.8535,85.01,68,100,4.0,moderate rain
232,Komsomolskiy,UZ,40.4272,71.7189,35.02,86,100,4.61,mist
233,Darnah,LY,32.767,22.6367,55.96,74,0,14.12,clear sky
234,Flinders,AU,-34.5833,150.8552,77.81,87,93,12.5,overcast clouds
235,Muzhi,RU,65.3667,64.6667,-15.0,99,23,6.17,few clouds
236,Port Augusta,AU,-32.5,137.7667,84.7,23,0,19.08,clear sky
237,Sangar,RU,63.9242,127.4739,-55.8,100,69,1.3,broken clouds
238,Coahuayana,MX,18.7333,-103.6833,72.5,90,71,1.32,broken clouds
239,Muromtsevo,RU,56.3724,75.2418,-18.29,98,5,1.72,clear sky
240,Diffa,NE,13.3154,12.6113,65.32,29,79,9.75,broken clouds
241,Greeneville,US,36.1632,-82.831,65.19,80,75,5.75,broken clouds
242,Samarai,PG,-10.6167,150.6667,84.65,73,100,9.44,overcast clouds
243,Palu,ID,-0.8917,119.8707,86.27,67,95,3.2,overcast clouds
244,Ambulu,ID,-8.345,113.6058,83.25,76,97,7.38,overcast clouds
245,Kolyshley,RU,52.7005,44.5367,-2.38,100,79,5.46,broken clouds
246,Saint Andrews,US,34.0454,-81.1293,67.28,72,1,1.99,clear sky
247,Bud,US,39.447,-86.1758,52.12,90,0,5.3,clear sky
248,General Roca,AR,-39.0333,-67.5833,72.0,13,0,7.83,clear sky
249,Moussoro,TD,13.6408,16.4901,66.2,19,16,11.43,few clouds
250,Georgetown,MY,5.4112,100.3354,84.13,76,20,1.01,few clouds
251,Moron,AR,-34.6534,-58.6198,75.02,81,0,1.99,clear sky
252,Clyde River,CA,70.4692,-68.5914,-0.17,78,100,19.57,overcast clouds
253,Mareeba,AU,-17.0,145.4333,86.72,90,100,3.98,overcast clouds
254,Juneau,US,58.3019,-134.4197,8.98,72,20,0.0,few clouds
255,Sioux Lookout,CA,50.1001,-91.917,-3.62,84,90,0.0,overcast clouds
256,Mgachi,RU,51.05,142.2667,-2.54,97,100,13.13,light snow
257,Dunedin,NZ,-45.8742,170.5036,71.24,44,0,7.4,clear sky
258,Belle Fourche,US,44.6714,-103.8522,33.49,62,81,4.9,broken clouds
259,Haines Junction,CA,60.7522,-137.5108,-4.05,77,100,0.0,light snow
260,Mombetsu,JP,44.3525,143.3525,21.22,63,40,17.27,light snow
261,Stephenville,US,32.2207,-98.2023,71.17,60,1,0.0,clear sky
262,Beringovskiy,RU,63.05,179.3167,0.59,93,100,12.66,overcast clouds
263,Berlevag,NO,70.8578,29.0864,28.13,82,100,24.25,light snow
264,Monkey Bay,MW,-14.0728,34.9201,81.28,68,99,12.01,overcast clouds
265,The Valley,AI,18.217,-63.0578,78.66,66,8,16.42,clear sky
266,Vardo,NO,70.3705,31.1107,27.5,77,100,23.17,light snow
267,Otradnoye,RU,59.7775,30.8181,3.25,99,100,4.21,overcast clouds
268,Kemijarvi,FI,66.7131,27.4306,7.02,94,100,6.73,overcast clouds
269,Ourossogui,SN,15.6064,-13.3211,77.05,16,99,7.99,overcast clouds
270,Tevriz,RU,57.509,72.4042,-18.42,99,8,2.86,clear sky
271,Diapaga,BF,12.0708,1.7889,71.08,19,87,6.58,overcast clouds
272,Yulara,AU,-25.2406,130.9889,93.04,14,75,12.66,broken clouds
273,Prince George,CA,53.9166,-122.753,-13.56,64,1,14.97,clear sky
274,Ninghai,CN,29.2892,121.4247,33.48,55,16,12.01,few clouds
275,Ko Samui,TH,9.5357,99.9357,84.11,74,20,11.5,few clouds
276,San Ramon,US,37.7799,-121.978,47.91,92,90,1.01,overcast clouds
277,Tsiroanomandidy,MG,-18.7667,46.0333,70.74,84,99,2.62,overcast clouds
278,Cabedelo,BR,-6.9811,-34.8339,79.47,82,100,7.27,overcast clouds
279,Talnakh,RU,69.4865,88.3972,-1.46,96,97,7.58,overcast clouds
280,Burnie,AU,-41.0667,145.9167,70.92,37,30,8.34,scattered clouds
281,Birjand,IR,32.8663,59.2211,23.47,54,0,6.91,clear sky
282,Show Low,US,34.2542,-110.0298,43.3,89,1,11.5,clear sky
283,Leningradskiy,RU,69.3833,178.4167,-12.15,97,100,7.81,overcast clouds
284,Airai,TL,-8.9266,125.4092,60.03,97,100,4.41,moderate rain
285,Labuhan,ID,-6.8844,112.2051,83.68,71,92,6.82,overcast clouds
286,Kieta,PG,-6.2167,155.6333,81.09,79,100,2.06,overcast clouds
287,Kawalu,ID,-7.3817,108.2082,76.51,84,100,1.63,overcast clouds
288,Daru,PG,-9.0763,143.2092,83.77,74,100,0.31,light rain
289,Vila Velha,BR,-20.3297,-40.2925,70.95,85,0,3.44,clear sky
290,Acapulco,MX,16.8634,-99.8901,80.42,69,40,3.44,scattered clouds
291,Mizan Teferi,ET,6.9833,35.5833,60.46,93,49,2.82,light rain
292,Novikovo,RU,51.1537,37.8879,10.67,94,100,4.05,overcast clouds
293,Manggar,ID,-2.8833,108.2667,81.81,76,99,5.75,overcast clouds
294,San Patricio,US,28.017,-97.5169,72.84,84,5,9.48,clear sky
295,Iqaluit,CA,63.7506,-68.5145,-0.31,70,20,13.0,few clouds
296,Bubaque,GW,11.2833,-15.8333,79.32,73,100,7.54,overcast clouds
297,Cherskiy,RU,68.75,161.3,-23.4,99,100,4.61,overcast clouds
298,Gamba,GA,-2.65,10.0,76.77,91,87,5.48,overcast clouds
299,Adre,TD,13.4667,22.2,63.59,20,96,12.39,overcast clouds
300,Bjornevatn,NO,69.6672,29.9847,25.14,93,75,16.11,snow
301,Beyla,GN,8.6833,-8.6333,70.05,35,32,2.15,scattered clouds
302,Kudahuvadhoo,MV,2.6708,72.8944,81.37,64,85,15.3,overcast clouds
303,Mount Gambier,AU,-37.8333,140.7667,65.21,47,23,13.49,few clouds
304,Itarema,BR,-2.9248,-39.9167,80.31,78,100,9.75,overcast clouds
305,Aykhal,RU,66.0,111.5,-31.59,100,85,1.97,overcast clouds
306,Castro,BR,-24.7911,-50.0119,61.68,57,43,3.96,scattered clouds
307,Kununurra,AU,-15.7667,128.7333,85.98,66,90,14.97,overcast clouds
308,Matara,LK,5.9485,80.5353,73.6,77,4,7.31,clear sky
309,Lieksa,FI,63.3167,30.0167,8.65,93,100,8.5,overcast clouds
310,Narsaq,GL,60.9167,-46.05,44.82,49,100,20.0,overcast clouds
311,Hami,CN,42.8,93.45,20.88,29,2,5.44,clear sky
312,Kachiry,KZ,53.0675,76.1036,11.57,95,100,9.15,overcast clouds
313,Nikko,JP,36.75,139.6167,33.94,57,66,14.32,light rain
314,Ixtapa,MX,20.7,-105.2,72.23,83,1,0.0,clear sky
315,Sao Filipe,CV,14.8961,-24.4956,76.46,66,55,8.86,broken clouds
316,Araouane,ML,18.9048,-3.5265,65.34,19,0,6.96,clear sky
317,Karpathos,GR,35.507,27.2132,58.96,67,2,9.22,clear sky
318,Aguimes,ES,27.9054,-15.4461,59.63,67,0,0.0,clear sky
319,Anuradhapura,LK,8.3565,80.4173,70.38,84,21,3.76,few clouds
320,Miramar,US,25.9873,-80.2323,73.42,80,1,0.0,clear sky
321,Malinyi,TZ,-8.9333,36.1333,70.59,86,38,1.72,scattered clouds
322,Okato,NZ,-39.2,173.8833,76.42,57,27,7.05,scattered clouds
323,Bitung,ID,1.4451,125.1824,79.65,70,94,10.4,overcast clouds
324,Waipawa,NZ,-41.4122,175.5153,68.63,51,0,6.22,clear sky
325,Walvis Bay,NA,-22.9575,14.5053,61.09,88,0,3.44,clear sky
326,Ramgarh,IN,23.6333,85.5167,57.25,51,0,3.47,clear sky
327,Maceio,BR,-9.6658,-35.7353,80.04,89,75,4.61,moderate rain
328,Chumphon,TH,10.3333,98.8333,78.91,69,20,6.58,few clouds
329,Hofn,IS,64.2539,-15.2082,32.13,96,100,14.14,light snow
330,Rio Grande,BR,-32.035,-52.0986,72.59,81,47,16.42,scattered clouds
331,Zalantun,CN,48.0,122.7167,-6.05,71,10,7.47,clear sky
332,Puerto Escondido,MX,15.85,-97.0667,79.63,73,20,0.0,few clouds
333,Raga,SS,8.4596,25.678,69.17,27,87,4.41,overcast clouds
334,Naze,JP,28.3667,129.4833,52.72,69,100,19.6,overcast clouds
335,Amboise,FR,47.4125,0.9827,50.54,93,90,9.22,overcast clouds
336,Tiarei,PF,-17.5333,-149.3333,82.42,76,18,16.02,light rain
337,Odesskoye,RU,54.2111,72.9651,-10.37,93,40,6.6,scattered clouds
338,Bontang,ID,0.1333,117.5,82.78,72,100,2.86,light rain
339,Trelew,AR,-43.249,-65.3051,66.72,53,0,11.74,clear sky
340,Clayton,US,33.5335,-84.3666,66.56,79,75,3.0,broken clouds
341,Nurobod,UZ,40.9056,69.8023,38.25,80,100,2.19,overcast clouds
342,Nikolayevka,RU,53.1257,47.2041,7.54,97,52,6.08,broken clouds
343,Olovyannaya,RU,50.95,115.5667,-8.63,93,26,2.13,scattered clouds
344,Luganville,VU,-15.5333,167.1667,85.24,74,86,5.93,overcast clouds
345,Saint Paul,US,44.9444,-93.0933,24.58,64,90,1.01,overcast clouds
346,Santa Maria,BR,-29.6842,-53.8069,69.1,78,0,3.44,clear sky
347,Havre-Saint-Pierre,CA,50.2334,-63.5986,32.0,80,1,12.66,clear sky
348,Fort Nelson,CA,58.8053,-122.7002,-27.81,68,1,3.44,clear sky
349,Rumphi,MW,-11.0186,33.8575,65.66,67,91,3.36,overcast clouds
350,Smithers,CA,54.7804,-127.1743,-19.88,76,1,0.0,clear sky
351,Vestmannaeyjar,IS,63.4427,-20.2734,39.4,75,100,11.36,overcast clouds
352,Belaya Gora,RU,68.5333,146.4167,-39.66,99,97,6.89,overcast clouds
353,Diego De Almagro,CL,-26.3667,-70.05,68.43,51,22,4.09,few clouds
354,Marsaxlokk,MT,35.8419,14.5431,62.08,88,0,12.66,clear sky
355,Abu Kamal,SY,34.4506,40.9171,40.28,39,0,4.23,clear sky
356,Kanpur,IN,26.4667,80.35,51.67,63,12,3.2,few clouds
357,Garwa,IN,24.1833,83.8167,55.62,58,0,1.92,clear sky
358,Port Blair,IN,11.6667,92.75,79.23,69,12,9.53,few clouds
359,Shevchenkove,UA,49.6959,37.1735,22.78,95,100,3.53,light snow
360,Oriximina,BR,-1.7656,-55.8661,75.31,91,99,2.08,overcast clouds
361,Akyab,MM,20.15,92.9,66.06,71,0,6.24,clear sky
362,Shimoda,JP,34.6667,138.95,46.76,51,1,25.79,clear sky
363,Chico,US,39.7285,-121.8375,46.9,91,75,3.0,broken clouds
364,Acarau,BR,-2.8856,-40.12,80.1,80,100,9.26,overcast clouds
365,Tessalit,ML,20.1986,1.0114,62.04,18,0,6.38,clear sky
366,Ormara,PK,25.2088,64.6357,73.31,78,100,7.2,overcast clouds
367,Belomorsk,RU,64.5232,34.7668,11.12,97,100,2.95,light snow
368,Fare,PF,-16.7,-151.0167,81.59,68,6,13.56,clear sky
369,Chicama,PE,-7.8447,-79.1469,69.15,81,92,4.81,overcast clouds
370,Bosaso,SO,11.2842,49.1816,72.52,76,31,4.72,scattered clouds
371,Salalah,OM,17.0151,54.0924,68.09,77,0,4.61,clear sky
372,Alofi,NU,-19.0595,-169.9187,84.09,54,12,6.91,few clouds
373,Qujing,CN,25.4833,103.7833,48.69,84,99,4.5,overcast clouds
374,Virginia Beach,US,36.8529,-75.978,66.25,67,1,16.11,clear sky
375,Methven,NZ,-43.6333,171.65,74.91,33,0,6.73,clear sky
376,Rawson,AR,-43.3002,-65.1023,64.92,63,0,10.94,clear sky
377,Puerto El Triunfo,SV,13.2833,-88.55,73.56,69,5,5.46,clear sky
378,Fevik,NO,58.3794,8.6766,12.09,70,3,5.75,clear sky
379,Buchanan,LR,5.8808,-10.0467,78.69,84,35,4.18,scattered clouds
380,Luanda,AO,-8.8368,13.2343,77.0,83,75,5.75,broken clouds
381,Bojnice,SK,48.7851,18.5864,26.98,91,100,4.29,overcast clouds
382,Brewster,US,41.3973,-73.6171,44.29,94,40,1.01,mist
383,Kuruman,ZA,-27.4524,23.4325,66.99,71,0,17.94,clear sky
384,Nantucket,US,41.2835,-70.0995,44.02,93,100,14.7,overcast clouds
385,Saint-Augustin,CA,51.226,-58.6502,27.07,97,99,3.6,overcast clouds
386,Fasa,IR,28.9383,53.6482,33.04,93,0,0.0,clear sky
387,Tezu,IN,27.9167,96.1667,60.1,64,91,1.12,overcast clouds
388,Krasnoarmeysk,RU,51.0239,45.6969,21.29,94,100,7.0,light snow
389,Nemuro,JP,43.3236,145.575,23.43,64,100,21.12,overcast clouds
390,Marawi,PH,7.9986,124.2928,72.64,72,99,3.76,overcast clouds
391,Tucuman,AR,-26.8241,-65.2226,73.4,73,0,4.61,clear sky
392,Auki,SB,-8.7676,160.7034,84.16,79,95,7.18,overcast clouds
393,Rio Pardo,BR,-29.9897,-52.3781,69.3,69,26,6.04,scattered clouds
394,Hare Bay,CA,48.8499,-54.0148,24.19,93,100,11.36,light snow
395,Voskresenskoye,RU,56.8381,45.4317,9.46,91,100,10.51,overcast clouds
396,Starogard Gdanski,PL,53.964,18.5264,22.1,82,5,12.77,clear sky
397,Tianpeng,CN,30.9866,103.9393,39.67,47,100,4.03,overcast clouds
398,Altay,CN,47.8667,88.1167,12.88,51,35,7.29,scattered clouds
399,Olean,US,42.0776,-78.4297,47.1,100,90,10.36,fog
400,Tsabong,BW,-26.0217,22.401,78.1,43,55,19.46,broken clouds
401,Xichang,CN,27.8964,102.2634,42.39,94,97,3.85,overcast clouds
402,Klaksvik,FO,62.2266,-6.589,38.32,64,100,15.12,overcast clouds
403,Troina,IT,37.7854,14.5985,48.78,90,100,1.12,overcast clouds
404,Saskylakh,RU,71.9167,114.0833,-29.78,100,21,2.46,few clouds
405,Izumo,JP,35.3667,132.7667,35.55,64,40,17.27,light shower snow
406,Otoka,BA,44.96,16.1792,46.8,95,100,5.53,light rain
407,Agua Verde,MX,22.9,-106.05,73.13,70,0,7.87,clear sky
408,Vostok,RU,46.4856,135.8833,-15.07,89,82,4.94,broken clouds
409,Grande Prairie,CA,55.1667,-118.8027,-29.02,75,20,5.75,few clouds
410,Pisco,PE,-13.7,-76.2167,69.85,78,90,11.5,overcast clouds
411,Rahden,DE,52.4333,8.6167,23.05,87,0,9.33,clear sky
412,Sayyan,YE,15.1718,44.3244,49.73,38,0,2.24,clear sky
413,Eirunepe,BR,-6.6603,-69.8736,79.21,78,100,1.16,overcast clouds
414,Ust-Nera,RU,64.5667,143.2,-41.76,100,95,3.06,overcast clouds
415,Kosonsoy,UZ,41.2561,71.5508,30.76,61,100,4.21,overcast clouds
416,Marsh Harbour,BS,26.5412,-77.0636,72.64,55,0,2.91,clear sky
417,Singaraja,ID,-8.112,115.0882,86.97,69,100,4.38,overcast clouds
418,Kendari,ID,-3.945,122.4989,82.83,72,100,3.09,overcast clouds
419,Wajima,JP,37.4,136.9,29.08,68,75,10.36,light snow
420,Alamogordo,US,32.8995,-105.9603,61.61,44,90,6.91,overcast clouds
421,Along,IN,28.1667,94.7667,52.47,56,8,1.12,clear sky
422,Tromso,NO,69.6496,18.957,17.62,93,40,2.3,scattered clouds
423,Bongandanga,CD,1.5,21.05,72.43,93,100,2.28,overcast clouds
424,Bani Walid,LY,31.7566,13.9942,55.87,34,100,10.67,overcast clouds
425,General Pico,AR,-35.6566,-63.7568,73.74,28,0,7.54,clear sky
426,Moranbah,AU,-22.0016,148.0466,80.4,61,100,5.5,light rain
427,Muros,ES,42.7762,-9.0603,56.08,94,100,8.37,overcast clouds
428,Cedeno,CO,7.0464,-72.1634,73.85,80,95,5.1,overcast clouds
429,Sierra Vista,US,31.5545,-110.3037,59.05,17,90,5.75,overcast clouds
430,Amuntai,ID,-2.4177,115.2494,85.51,70,66,1.86,broken clouds
431,Chapais,CA,49.7834,-74.8492,8.38,96,100,2.82,light snow
432,Simplicio Mendes,BR,-7.8539,-41.9103,70.9,97,100,2.21,overcast clouds
433,Kloulklubed,PW,7.0419,134.2556,84.7,79,94,18.37,overcast clouds
434,Porto Santo,PT,33.072,-16.3415,66.58,88,40,10.36,scattered clouds
435,Taoudenni,ML,22.6783,-3.9836,67.33,25,0,6.67,clear sky
436,Iguape,BR,-24.7081,-47.5553,68.14,84,0,7.38,clear sky
437,Faya,SA,18.3851,42.4509,55.51,67,7,2.51,clear sky
438,Svetlyy,RU,54.675,20.1347,35.96,66,80,23.31,broken clouds
439,Boras,SE,57.721,12.9401,19.49,88,7,3.36,clear sky
440,Maragogi,BR,-9.0122,-35.2225,79.14,85,99,7.65,moderate rain
441,Arlit,NE,18.7369,7.3853,66.2,20,100,4.72,overcast clouds
442,Roald,NO,62.5833,6.1333,35.74,87,75,10.36,shower sleet
443,Kota Bahru,MY,6.1333,102.2386,82.35,83,20,9.22,few clouds
444,Chumikan,RU,54.7183,135.315,-19.3,86,14,14.76,few clouds
445,Aktash,RU,50.3,87.7333,-7.26,65,88,5.41,overcast clouds
446,Santa Cruz,BO,-17.8,-63.1667,74.66,94,75,4.61,broken clouds
447,Shihezi,CN,44.3,86.0333,14.16,92,75,3.89,broken clouds
448,Corum,TR,40.5,34.75,24.35,70,48,3.04,scattered clouds
449,Uslar,DE,51.6569,9.635,24.13,73,8,3.67,clear sky
450,Salta,AR,-24.7859,-65.4117,70.09,81,40,1.99,scattered clouds
451,Lagoa,PT,39.05,-27.9833,62.62,91,100,32.64,overcast clouds
452,Taunggyi,MM,20.7833,97.0333,55.94,60,0,1.45,clear sky
453,Jalu,LY,29.0331,21.5482,54.01,51,0,7.72,clear sky
454,Abu Dhabi,AE,24.4667,54.3667,72.97,72,0,6.91,clear sky
455,Ucar,AZ,40.519,47.6542,24.98,45,92,5.53,overcast clouds
456,Itaituba,BR,-4.2761,-55.9836,73.94,99,100,1.83,overcast clouds
457,Shelburne,CA,44.0787,-80.2041,35.67,97,100,14.7,overcast clouds
458,Ahipara,NZ,-35.1667,173.1667,75.65,60,44,3.04,scattered clouds
459,Seoul,KR,37.5683,126.9778,15.31,40,0,8.05,clear sky
460,Tecoanapa,MX,16.5167,-98.75,78.24,78,9,4.79,clear sky
461,Lienz,AT,46.8289,12.769,39.18,95,100,3.67,overcast clouds
462,Ahar,IR,38.4774,47.0699,15.49,84,16,7.9,few clouds
463,Fort Abbas,PK,29.1925,72.8536,63.1,30,100,8.28,overcast clouds
464,Kiama,AU,-34.6833,150.8667,78.01,93,98,1.01,overcast clouds
465,Caxito,AO,-8.5785,13.6643,77.65,90,90,0.38,overcast clouds
466,Vrable,SK,48.2437,18.3085,33.69,82,100,5.23,overcast clouds
467,Inirida,CO,3.8653,-67.9239,76.35,93,76,2.01,broken clouds
468,Durban,ZA,-29.8579,31.0292,71.02,92,99,1.01,overcast clouds
469,Aitape,PG,-3.1374,142.3475,83.23,79,100,7.31,overcast clouds
470,Bandarbeyla,SO,9.4942,50.8122,78.37,62,92,10.83,overcast clouds
471,Charyshskoye,RU,51.3978,83.5598,21.02,91,100,3.62,overcast clouds
472,Aktau,KZ,43.65,51.2,19.98,83,32,19.26,scattered clouds
473,Porto Walter,BR,-8.2686,-72.7439,75.67,85,7,3.04,clear sky
474,Drayton Valley,CA,53.2168,-114.9854,-14.17,97,100,3.13,overcast clouds
475,Nabire,ID,-3.3667,135.4833,87.93,63,99,4.41,overcast clouds
476,Benin,BJ,9.5,2.25,74.52,22,24,4.74,few clouds
477,Ariano Irpino,IT,41.1489,15.0833,51.85,90,100,8.9,overcast clouds
478,Samut Prakan,TH,13.5,100.45,85.37,72,7,9.78,clear sky
479,Byron Bay,AU,-28.65,153.6167,84.31,74,100,6.24,light rain
480,Iskateley,RU,67.6803,53.1512,-2.67,96,95,7.94,overcast clouds
481,Lodja,CD,-3.4833,23.4333,67.57,99,100,1.03,moderate rain
482,Montelibano,CO,7.9829,-75.4229,75.25,94,98,4.94,overcast clouds
483,Touros,BR,-5.1989,-35.4608,83.3,85,96,6.26,overcast clouds
484,Namibe,AO,-15.1961,12.1522,67.51,70,89,11.01,overcast clouds
485,Saint-Leu,RE,-21.15,55.2833,77.86,82,32,0.31,scattered clouds
486,Vermilion,US,40.1667,-87.7506,48.96,74,0,4.97,clear sky
487,Srednekolymsk,RU,67.45,153.6833,-30.59,99,100,6.26,overcast clouds
488,Kurashiki,JP,34.5833,133.7667,42.37,61,89,18.81,overcast clouds
489,Barcelona,ES,41.3888,2.159,56.53,77,20,1.01,few clouds
490,Ondjiva,AO,-17.0667,15.7333,73.18,20,98,4.9,overcast clouds
491,Los Llanos De Aridane,ES,28.6585,-17.9182,59.13,85,0,7.0,clear sky
492,Norilsk,RU,69.3535,88.2027,-6.18,95,59,6.17,broken clouds
493,Malakal,SS,9.5334,31.6605,73.87,23,90,6.64,overcast clouds
494,Richards Bay,ZA,-28.783,32.0377,71.46,85,98,10.45,overcast clouds
495,Toora-Khem,RU,52.4675,96.11,-23.01,99,95,0.38,overcast clouds
496,Isangel,VU,-19.55,169.2667,87.91,70,50,4.61,scattered clouds
497,Palmas,BR,-10.2128,-48.3603,75.07,94,90,2.3,overcast clouds
498,Buin,CL,-33.7333,-70.75,79.74,43,87,2.24,overcast clouds
499,Moerai,PF,-22.4333,-151.3333,77.09,70,8,20.49,clear sky
500,Lakatoro,VU,-16.0999,167.4164,85.57,69,84,6.06,broken clouds
501,Krutinka,RU,56.0055,71.5113,-19.12,98,9,4.65,clear sky
502,Port Hardy,CA,50.6996,-127.4199,26.78,80,90,13.8,light snow
503,Vila Franca Do Campo,PT,37.7167,-25.4333,66.2,91,99,25.26,overcast clouds
504,Kavieng,PG,-2.5744,150.7967,82.96,79,100,8.41,moderate rain
505,San Quintin,MX,30.4833,-115.95,58.55,78,99,10.65,overcast clouds
506,Matadi,CD,-5.8167,13.45,74.97,97,100,3.02,light rain
507,Plouzane,FR,48.3833,-4.6167,52.12,96,90,9.22,overcast clouds
508,Dukat,RU,62.55,155.55,-33.45,98,100,4.72,overcast clouds
509,Dunmore Town,BS,25.5,-76.65,73.13,58,0,7.23,clear sky
510,Waddan,LY,29.1614,16.139,52.86,42,62,6.31,broken clouds
511,Charters Towers,AU,-20.1,146.2667,86.7,52,100,16.42,overcast clouds
512,Half Moon Bay,US,37.4636,-122.4286,49.41,89,90,1.01,overcast clouds
513,Ambon,ID,-3.6954,128.1814,84.92,74,100,15.3,overcast clouds
514,Joshimath,IN,30.5667,79.5667,34.79,43,51,7.18,broken clouds
515,Rach Gia,VN,10.0167,105.0833,80.55,81,80,6.98,broken clouds
516,Mazagao,BR,-0.115,-51.2894,75.25,98,100,3.15,overcast clouds
517,La Palma,US,33.8464,-118.0467,53.91,88,40,1.99,scattered clouds
518,Laela,TZ,-8.5667,32.05,62.42,60,41,1.45,scattered clouds
519,Shagonar,RU,51.5333,92.8,-21.12,98,90,2.91,overcast clouds
520,Gat,IL,31.61,34.7642,50.4,65,0,4.7,clear sky
521,Colares,PT,38.7992,-9.4469,58.89,79,100,13.0,overcast clouds
522,Yumen,CN,40.2833,97.2,5.59,56,6,18.97,clear sky
523,Barth,DE,54.3635,12.7249,24.12,70,19,10.83,few clouds
524,Genhe,CN,50.7833,121.5167,-17.14,86,100,3.0,overcast clouds
525,Mocuba,MZ,-16.8392,36.9856,73.08,91,100,0.29,overcast clouds
526,Oussouye,SN,12.485,-16.5469,71.78,46,80,5.12,broken clouds
527,Meulaboh,ID,4.1363,96.1285,79.92,74,17,2.68,few clouds
528,Ketchikan,US,55.3422,-131.6461,17.58,52,1,8.05,clear sky
529,Susaki,JP,33.3667,133.2833,42.87,50,25,17.29,scattered clouds
530,Denia,ES,38.8408,0.1057,62.85,69,99,3.0,overcast clouds
531,Balkhash,KZ,46.844,74.9804,21.81,100,90,6.71,fog
532,Krasnovishersk,RU,60.4078,57.082,14.95,91,100,14.67,light snow
533,Te Anau,NZ,-45.4167,167.7167,63.25,66,80,7.76,broken clouds
534,Tirumullaivasal,IN,11.2333,79.8333,73.65,77,95,5.08,overcast clouds
535,Mitsamiouli,KM,-11.3847,43.2844,81.59,71,12,13.24,few clouds
536,Xining,CN,36.6167,101.7667,9.27,75,83,1.5,broken clouds
537,Gdov,RU,58.7406,27.8122,19.2,84,100,13.73,overcast clouds
538,Fortuna,US,40.5982,-124.1573,41.34,95,75,1.01,broken clouds
539,Lethem,GY,3.3803,-59.7968,79.86,69,87,8.63,overcast clouds
540,Makakilo City,US,21.3469,-158.0858,75.56,61,40,8.05,scattered clouds
541,Ambunti,PG,-4.2365,142.8448,80.46,86,100,2.82,overcast clouds
542,Port Hedland,AU,-20.3167,118.5667,109.45,18,98,12.66,overcast clouds
543,Puerto Baquerizo Moreno,EC,-0.9,-89.6,70.3,91,89,9.48,overcast clouds
544,Male,MV,4.1748,73.5089,81.3,64,80,12.71,broken clouds
545,Yenagoa,NG,4.9247,6.2642,76.15,89,61,2.89,broken clouds
546,Kutum,SD,14.2,24.6667,55.89,26,79,5.91,broken clouds
547,Bargarh,IN,21.3333,83.6167,62.82,63,1,1.59,clear sky
548,Sehithwa,BW,-20.4667,22.7167,73.54,70,92,10.45,overcast clouds
549,Toamasina,MG,-18.1667,49.3833,80.6,94,75,1.14,broken clouds
550,Ballina,AU,-28.8667,153.5667,84.38,77,99,5.3,overcast clouds
551,Najran,SA,17.4924,44.1277,63.25,33,0,3.18,clear sky
552,Pokhara,NP,28.2333,83.9833,50.94,47,17,5.12,few clouds
553,Emerald,AU,-23.5333,148.1667,83.34,67,100,6.89,light rain
554,Lapao,BR,-11.3833,-41.8319,65.8,98,100,10.51,overcast clouds
555,Santa Cruz De La Palma,ES,28.6835,-17.7642,63.14,77,0,3.44,clear sky
556,Omsukchan,RU,62.5333,155.8,-30.96,96,100,4.97,overcast clouds
557,Ignalina,LT,55.35,26.1667,25.63,92,100,16.24,light snow
558,Snyder,US,32.7179,-100.9176,69.35,34,1,4.61,clear sky
559,Abu Samrah,SY,35.3029,37.1841,40.55,71,1,3.42,clear sky
560,Stornoway,GB,58.2093,-6.3865,39.16,73,14,1.99,few clouds
561,Pangody,RU,65.85,74.4859,-14.1,97,38,11.48,scattered clouds
562,Kolobrzeg,PL,54.1757,15.5834,13.35,82,10,14.83,clear sky
563,Sao Gabriel Da Cachoeira,BR,-0.1303,-67.0892,74.07,96,84,0.98,broken clouds
564,Sao Miguel Do Iguacu,BR,-25.3481,-54.2378,79.81,39,5,2.42,clear sky
565,Santa Isabel,BR,-23.3156,-46.2214,66.65,96,13,1.79,few clouds
566,Katsuura,JP,35.1333,140.3,42.91,42,51,6.8,broken clouds
567,Vanavara,RU,60.34,102.2797,-12.57,100,100,1.07,overcast clouds
568,Mogadishu,SO,2.0371,45.3438,77.07,81,98,14.63,overcast clouds
569,Constantine,DZ,36.365,6.6147,49.41,76,0,2.3,clear sky
570,Kuching,MY,1.55,110.3333,86.22,74,40,3.44,scattered clouds
571,Porto Novo,BJ,6.4965,2.6036,80.42,84,17,4.68,few clouds
572,Coronel,CL,-37.0167,-73.1333,64.42,65,0,9.8,clear sky
573,Saint Anthony,US,45.0205,-93.218,23.25,68,90,1.01,overcast clouds
574,Usinsk,RU,65.9939,57.5281,5.02,83,100,13.04,overcast clouds
575,Doka,SD,13.5167,35.7667,73.36,57,6,7.94,clear sky
576,Salmas,IR,38.1973,44.7653,11.39,74,60,2.21,broken clouds
577,Carlos Antonio Lopez,PY,-26.4,-54.7667,76.69,42,57,1.48,broken clouds
578,Makokou,GA,0.5738,12.8642,73.47,80,100,1.97,overcast clouds
579,Vao,NC,-22.6667,167.4833,77.7,77,82,9.82,broken clouds
580,Coquimbo,CL,-29.9533,-71.3436,60.53,88,75,8.05,broken clouds
581,Marzuq,YE,14.4,46.4667,59.65,29,0,6.04,clear sky
582,Champerico,GT,14.3,-91.9167,81.36,70,13,8.43,few clouds
583,Kupang,ID,-10.1667,123.5833,79.38,94,90,12.66,heavy intensity rain
584,Kurduvadi,IN,18.0833,75.4333,67.12,49,0,5.44,clear sky
585,Payo,ID,-3.7508,103.6372,78.4,87,76,1.77,broken clouds
586,Beroroha,MG,-21.6667,45.1667,75.81,72,65,0.94,broken clouds
587,Pingyi,CN,35.5006,117.6308,18.52,27,0,5.97,clear sky
588,Parabel,RU,58.6978,81.4825,-13.49,99,24,4.25,few clouds
589,Saint-Francois,FR,46.4154,3.9054,44.47,99,90,3.44,mist
590,Suntar,RU,62.1444,117.6319,-34.85,99,78,3.65,broken clouds
591,Armizonskoye,RU,55.9461,67.6736,-12.71,95,8,7.31,clear sky
592,Namuac,PH,18.6109,121.1657,74.21,88,100,22.64,overcast clouds
593,Nioki,CD,-2.7167,17.6833,69.85,97,65,1.81,broken clouds
594,Hanmer Springs,NZ,-42.5167,172.8167,74.89,40,0,12.59,clear sky
595,Gizo,SB,-8.103,156.8419,83.14,74,100,11.7,light rain
596,Rudnogorsk,RU,57.2639,103.7519,-18.85,97,23,1.14,few clouds
597,Oxford,GB,51.7522,-1.256,45.45,97,75,1.01,moderate rain
598,Yanggu,CN,36.1106,115.7753,20.23,45,0,5.39,clear sky
599,Russell,US,32.3502,-85.1999,65.91,93,75,4.61,broken clouds
600,Abha,SA,18.2164,42.5053,55.22,88,0,9.22,clear sky
601,Kimbe,PG,-5.5502,150.1429,82.27,84,84,2.26,moderate rain
602,Lata,PT,40.1629,-8.3327,56.8,97,100,3.83,light rain
603,Sapa,PH,5.1544,120.3241,82.58,75,83,2.53,broken clouds
604,Eureka,US,40.8021,-124.1637,41.61,94,100,1.01,overcast clouds
605,Tsurib,RU,42.2368,46.8307,28.36,57,100,9.42,overcast clouds
606,Itoman,JP,26.1247,127.6694,59.38,77,75,19.57,broken clouds
607,Praia Da Vitoria,PT,38.7333,-27.0667,66.45,88,75,34.09,broken clouds
608,Tshikapa,CD,-6.4167,20.8,69.31,97,92,1.61,overcast clouds
609,Viedma,AR,-40.8135,-62.9967,68.86,51,0,9.57,clear sky
610,Doha,QA,25.2867,51.5333,67.98,58,0,11.5,clear sky
611,Kushmurun,KZ,52.4503,64.6311,-11.34,97,9,3.29,clear sky
612,North Myrtle Beach,US,33.816,-78.68,68.0,87,8,3.0,clear sky
613,Paita,PE,-5.0892,-81.1144,68.61,84,41,15.79,scattered clouds
614,San Jose,US,37.3394,-121.895,49.57,92,90,5.75,mist
615,Naples,IT,40.8333,14.25,59.76,84,40,3.0,scattered clouds
616,Pavelets,RU,53.7883,39.246,6.58,95,6,9.78,clear sky
617,Puerto Leguizamo,CO,-0.1934,-74.7819,74.05,94,30,1.79,scattered clouds
618,Slave Lake,CA,55.2834,-114.769,-20.22,69,75,12.66,broken clouds
619,Alice Town,BS,25.7167,-79.3,74.12,65,0,7.4,clear sky
620,Aswan,EG,24.0934,32.907,49.3,46,0,14.97,clear sky
621,Ribas Do Rio Pardo,BR,-20.4431,-53.7592,74.84,48,0,2.98,clear sky
622,Petrolina,BR,-9.3986,-40.5008,71.65,100,90,3.44,moderate rain
623,Atyrau,KZ,47.1167,51.8833,17.62,86,0,22.37,clear sky
624,Americus,US,32.0724,-84.2327,66.33,72,1,5.75,clear sky
625,Stephenville Crossing,CA,48.5,-58.4318,32.13,80,75,5.75,broken clouds
626,Celestun,MX,20.8667,-90.4,73.44,65,0,13.15,clear sky
627,Sukhodol,RU,53.9006,51.2117,25.21,95,100,21.88,light snow
628,Trairi,BR,-3.2778,-39.2689,80.19,79,100,7.76,overcast clouds
629,Umm Lajj,SA,25.0213,37.2685,66.99,41,0,2.95,clear sky
630,Olafsvik,IS,64.8945,-23.7142,30.15,76,100,24.54,overcast clouds
631,Farmington,US,36.7281,-108.2187,38.7,81,20,6.91,few clouds
632,Posse,BR,-14.0931,-46.3694,66.88,94,85,3.85,light rain
633,Misratah,LY,32.3754,15.0925,59.86,43,100,14.5,overcast clouds
634,Boiro,ES,42.65,-8.9,56.08,94,100,6.82,overcast clouds
635,Tarabuco,BO,-19.1667,-64.9167,48.33,86,100,5.55,overcast clouds
636,Bahia Blanca,AR,-38.7196,-62.2724,75.76,37,1,8.14,clear sky
637,Aracuai,BR,-16.8497,-42.0703,65.68,96,27,2.06,scattered clouds
638,Beidao,CN,34.5686,105.8933,23.22,44,17,4.21,few clouds
639,Sorland,NO,67.667,12.6934,35.17,50,100,9.06,light rain
640,Letka,RU,59.6011,49.4232,16.81,86,100,15.23,light snow
641,Hobyo,SO,5.3505,48.5268,77.74,75,41,12.12,scattered clouds
642,Zaozerne,UA,45.1582,33.2787,49.95,88,100,25.61,overcast clouds
643,Henderson,US,36.0397,-114.9819,56.82,47,90,16.11,overcast clouds
644,Rorvik,NO,64.8621,11.2373,37.51,56,100,19.48,light rain
645,Mana,GF,5.6592,-53.7767,76.48,89,70,6.06,broken clouds
646,Vredendal,ZA,-31.6683,18.5012,63.82,85,36,4.65,scattered clouds
647,Santa Ana,US,33.7456,-117.8678,53.78,89,40,0.0,scattered clouds
648,Itapetinga,BR,-15.2489,-40.2478,67.57,99,100,2.64,light rain
649,Aksarka,RU,66.5606,67.7975,-15.0,99,78,7.94,broken clouds
650,Hai Duong,VN,20.9333,106.3167,68.0,66,100,6.53,overcast clouds
651,Union,US,40.6334,-74.2663,54.09,86,90,5.75,overcast clouds
652,Aranyosapati,HU,48.206,22.2592,24.08,87,100,7.65,overcast clouds
653,Lazaro Cardenas,MX,17.9583,-102.2,76.42,79,22,4.16,few clouds
654,Gimli,CA,50.6336,-96.9907,-3.98,65,80,3.44,broken clouds
655,North Bend,US,43.4065,-124.2243,40.91,90,75,6.91,broken clouds
656,Comodoro Rivadavia,AR,-45.8667,-67.5,58.86,77,0,2.3,clear sky
657,Nome,US,64.5011,-165.4064,32.16,93,90,9.22,mist
658,Bulgan,MN,48.8125,103.5347,1.2,69,9,4.59,clear sky
659,Shumikha,RU,55.2261,63.2961,-5.82,90,5,11.79,clear sky
660,Avera,US,33.194,-82.5271,66.9,83,3,10.02,clear sky
661,Isawa,JP,35.65,138.6333,42.39,27,18,13.0,few clouds
662,Sistranda,NO,63.7256,8.834,35.91,77,100,8.88,light snow
663,Cepu,ID,-7.1475,111.5906,83.59,73,92,6.13,overcast clouds
664,Dickinson,US,29.4608,-95.0513,73.51,89,90,1.99,mist
665,Saint-Joseph,RE,-21.3667,55.6167,77.38,85,40,1.3,scattered clouds
666,Ukiah,US,39.1502,-123.2078,44.83,88,90,0.0,overcast clouds
667,Humaita,BR,-7.5061,-63.0208,78.21,91,100,3.31,moderate rain
668,Gunjur,GM,13.2019,-16.7339,75.27,41,0,11.5,clear sky
669,Kaabong,UG,3.4836,34.1492,66.02,77,78,14.54,broken clouds
670,Camacha,PT,33.0833,-16.3333,63.82,88,40,10.36,scattered clouds
671,Takoradi,GH,4.8845,-1.7554,79.72,84,55,6.71,broken clouds
672,Imeni Poliny Osipenko,RU,52.4201,136.4853,-21.78,92,22,1.23,few clouds
673,Antofagasta,CL,-23.65,-70.4,65.48,73,97,2.06,overcast clouds
674,Kayes,ML,14.0,-11.0,75.47,13,100,5.03,overcast clouds
675,Dangriga,BZ,16.9692,-88.2321,75.97,79,48,7.94,scattered clouds
676,Buta,CD,2.7858,24.73,70.0,99,98,1.28,light rain
677,Santa Isabel Do Rio Negro,BR,-0.4139,-65.0192,75.79,92,98,2.77,overcast clouds
678,Menongue,AO,-14.6585,17.691,63.91,88,94,4.5,overcast clouds
679,Bowling Green,US,36.9903,-86.4436,66.13,77,20,4.61,few clouds
680,Prachin Buri,TH,14.0833,101.6667,77.25,71,22,5.39,few clouds
681,Kindu,CD,-2.95,25.95,69.35,99,100,1.3,overcast clouds
682,Sakaiminato,JP,35.55,133.2333,35.58,75,75,17.27,light shower snow
683,Talas,TR,38.6908,35.5538,14.67,86,0,4.61,clear sky
684,Galeana,MX,24.8333,-100.0667,60.64,54,0,0.83,clear sky
685,Greytown,ZA,-29.0642,30.5928,57.87,98,88,1.81,overcast clouds
686,Hisai,JP,34.6667,136.4667,38.79,70,64,15.93,broken clouds
687,Sao Joao Da Barra,BR,-21.6403,-41.0511,69.37,79,0,3.44,clear sky
688,Necochea,AR,-38.5473,-58.7368,57.04,74,0,0.89,clear sky
